elevation,mindate,maxdate,latitude,name,datacoverage,id,elevationUnit,longitude
667.0,1920-01-01,2024-01-01,40.4117,"MADRID RETIRO, SP",0.9612,GHCND:SP000003195,METERS,-3.6781
185.0,1955-01-01,2024-01-01,38.8831,"BADAJOZ TALAVERA LA REAL, SP",0.9993,GHCND:SP000004452,METERS,-6.8292
7.0,1943-01-01,2024-01-01,36.6667,"MALAGA AEROPUERTO, SP",0.9993,GHCND:SP000006155,METERS,-4.4881
251.0,1918-01-01,2024-01-01,43.3075,"SAN SEBASTIAN IGUELDO, SP",0.9059,GHCND:SP000008027,METERS,-2.0392
4.0,1925-01-01,2024-01-01,41.2928,"BARCELONA AEROPUERTO, SP",0.8594,GHCND:SP000008181,METERS,2.0697
790.0,1945-01-01,2024-01-01,40.9592,"SALAMANCA AEROPUERTO, SP",0.9993,GHCND:SP000008202,METERS,-5.4981
1894.0,1946-01-01,2024-01-01,40.7806,"NAVACERRADA, SP",0.9993,GHCND:SP000008215,METERS,-4.0103
704.0,1901-01-01,2024-01-01,38.9519,"ALBACETE LOS LLANOS, SP",0.7898,GHCND:SP000008280,METERS,-1.8631
90.0,1960-01-01,2024-01-01,37.8442,"CORDOBA AEROPUERTO, SP",0.907,GHCND:SP000008410,METERS,-4.8458
247.0,1941-01-01,2024-01-01,41.6617,"ZARAGOZA AEROPUERTO, SP",0.8804,GHCND:SP000009434,METERS,-1.0081
44.0,1905-01-01,2024-01-01,40.8206,"TORTOSA OBSERVATORIO DEL EBR, SP",0.991,GHCND:SP000009981,METERS,0.4914
2371.0,1920-01-01,2024-01-01,28.3089,"IZANA, SP",0.9803,GHCND:SP000060010,METERS,-16.4992
14.0,1973-01-01,2024-01-01,28.9517,"LANZAROTE AEROPUERTO, SP",0.9993,GHCND:SP000060040,METERS,-13.6003
58.0,1931-01-01,2024-01-01,43.3669,"A CORUNA, SP",0.9568,GHCND:SPE00119711,METERS,-8.4192
98.0,1972-01-01,2024-01-01,43.3067,"A CORUNA ALVEDRO, SP",0.9427,GHCND:SPE00119720,METERS,-8.3719
370.0,1944-01-01,2024-01-01,42.8878,"SANTIAGO DE COMPOSTELA LABACOL, SP",0.9376,GHCND:SPE00119729,METERS,-8.4106
521.0,1946-01-01,1979-01-01,42.8506,"VITORIA AERODROMO, SP",0.9112,GHCND:SPE00119738,METERS,-2.6544
513.0,1976-01-01,2024-01-01,42.8717,"VITORIA FORONDA, SP",0.9381,GHCND:SPE00119747,METERS,-2.7331
674.0,1983-01-01,2024-01-01,39.0067,"ALBACETE OBS., SP",0.9993,GHCND:SPE00119756,METERS,-1.8606
7.0,1934-01-01,1980-01-01,36.8331,"ALMERIA, SP",0.893,GHCND:SPE00119774,METERS,-2.4544
21.0,1969-01-01,2024-01-01,36.8464,"ALMERIA AEROPUERTO, SP",0.9993,GHCND:SPE00119783,METERS,-2.3567
127.0,1969-01-01,2024-01-01,43.5667,"ASTURIAS AVILES, SP",0.9815,GHCND:SPE00119792,METERS,-6.0442
22.0,1939-01-01,2000-01-01,43.5381,"GIJON LA MERCED, SP",0.9993,GHCND:SPE00119801,METERS,-5.6417
5.0,2002-01-01,2024-01-01,43.5606,"GIJON MUSEL, SP",0.9993,GHCND:SPE00119819,METERS,-5.6983
336.0,1973-01-01,2022-01-01,43.3542,"OVIEDO, SP",0.9993,GHCND:SPE00119828,METERS,-5.8728
1130.0,1985-01-01,2024-01-01,40.6592,"AVILA, SP",0.9993,GHCND:SPE00119837,METERS,-4.68
1143.0,1955-01-01,1982-01-01,40.6556,"AVILA AYUNTAMIENTO, SP",0.8209,GHCND:SPE00119846,METERS,-4.6992
6.0,1944-01-01,2024-01-01,38.8764,"IBIZA ESCODOLA, SP",0.6538,GHCND:SPE00119855,METERS,1.3842
91.0,1965-01-01,2024-01-01,39.8544,"MENORCA MAO, SP",0.9493,GHCND:SPE00119864,METERS,4.2156
3.0,1973-01-01,2024-01-01,39.5556,"PALMA DE MALLORCA CMT, SP",0.9609,GHCND:SPE00119882,METERS,2.6264
890.0,1944-01-01,2024-01-01,42.3558,"BURGOS VILLAFRIA, SP",0.987,GHCND:SPE00119909,METERS,-3.6325
405.0,1977-01-01,2015-01-01,39.4719,"CACERES, SP",0.6919,GHCND:SPE00119918,METERS,-6.3392
1.0,1956-01-01,2024-01-01,36.5008,"CADIZ, SP",0.811,GHCND:SPE00119936,METERS,-6.2567
27.0,1954-01-01,2024-01-01,36.7506,"JEREZ DE LA FRONTERA, SP",0.9289,GHCND:SPE00119945,METERS,-6.0556
21.0,1989-01-01,2024-01-01,36.6389,"ROTA, SP",0.9716,GHCND:SPE00119954,METERS,-6.3317
32.0,1946-01-01,2024-01-01,36.0153,"TARIFA, SP",0.7337,GHCND:SPE00119963,METERS,-5.5975
64.0,1924-01-01,1996-01-01,43.4644,"SANTANDER CENTRO, SP",0.9856,GHCND:SPE00119972,METERS,-3.8189
52.0,1947-01-01,2023-01-01,43.4917,"SANTANDER CMT, SP",0.4932,GHCND:SPE00119981,METERS,-3.7994
5.0,1955-01-01,2023-01-01,43.4292,"SANTANDER PARAYAS, SP",0.84,GHCND:SPE00119990,METERS,-3.8314
87.0,1992-01-01,2024-01-01,35.89,"CEUTA, SP",0.4845,GHCND:SPE00120017,METERS,-5.3456
200.0,1935-01-01,1985-01-01,35.8919,"CEUTA MONTE HACHO, SP",0.8621,GHCND:SPE00120026,METERS,-5.2892
628.0,1971-01-01,2024-01-01,38.9892,"CIUDAD REAL, SP",0.9993,GHCND:SPE00120035,METERS,-3.9194
627.0,1920-01-01,1970-01-01,38.9892,"CIUDAD REAL INSTITUTO, SP",0.8622,GHCND:SPE00120044,METERS,-3.9283
945.0,1951-01-01,2024-01-01,40.0667,"CUENCA, SP",0.8508,GHCND:SPE00120062,METERS,-2.1381
143.0,1973-01-01,2024-01-01,41.9117,"GIRONA COSTA BRAVA, SP",0.9224,GHCND:SPE00120080,METERS,2.7631
567.0,1973-01-01,2024-01-01,37.1894,"GRANADA AEROPUERTO, SP",0.9801,GHCND:SPE00120089,METERS,-3.7892
639.0,1986-01-01,2021-01-01,40.6608,"GUADALAJARA, SP",0.6107,GHCND:SPE00120107,METERS,-3.1742
685.0,1951-01-01,1985-01-01,40.6344,"GUADALAJARA INSTITUTO, SP",0.6281,GHCND:SPE00120116,METERS,-3.1642
1056.0,1951-01-01,2024-01-01,40.8442,"MOLINA DE ARAGON, SP",0.8643,GHCND:SPE00120125,METERS,-1.8853
4.0,2004-01-01,2022-01-01,43.3606,"SAN SEBASTIAN FUENTERRABIA, SP",0.9993,GHCND:SPE00120134,METERS,-1.7869
19.0,1985-01-01,2024-01-01,37.28,"HUELVA RONDA DEL ESTE, SP",0.9743,GHCND:SPE00120143,METERS,-6.9094
17.0,1920-01-01,2021-01-01,37.2594,"HUELVA, SP",0.5976,GHCND:SPE00120152,METERS,-6.9492
541.0,1945-01-01,2024-01-01,42.0831,"HUESCA, SP",0.9369,GHCND:SPE00120161,METERS,0.3264
582.0,1989-01-01,2024-01-01,37.7778,"JAEN, SP",0.9993,GHCND:SPE00120170,METERS,-3.8075
510.0,1921-01-01,2013-01-01,37.7778,"JAEN INSTITUTO, SP",0.4298,GHCND:SPE00120179,METERS,-3.7881
353.0,1949-01-01,2024-01-01,42.4519,"LOGRONO AGONCILLO, SP",0.9993,GHCND:SPE00120188,METERS,-2.3308
25.0,1967-01-01,2024-01-01,28.4444,"FUERTEVENTURA AEROPUERTO, SP",0.9476,GHCND:SPE00120197,METERS,-13.8631
24.0,1958-01-01,2024-01-01,27.9225,"LAS PALMAS DE GRAN CANARIA GAN, SP",0.3729,GHCND:SPE00120215,METERS,-15.3892
916.0,1938-01-01,2024-01-01,42.5889,"LEON VIRGEN DEL CAMINO, SP",0.9763,GHCND:SPE00120224,METERS,-5.6492
534.0,1951-01-01,2024-01-01,42.5639,"PONFERRADA, SP",0.9858,GHCND:SPE00120233,METERS,-6.6
192.0,1984-01-01,2024-01-01,41.6256,"LLEIDA, SP",0.9993,GHCND:SPE00120242,METERS,0.595
191.0,1960-01-01,1982-01-01,41.6183,"LLEIDA OBSERVATORIO, SP",0.9993,GHCND:SPE00120251,METERS,0.6217
445.0,1951-01-01,2024-01-01,43.1153,"LUGO ROZAS, SP",0.5266,GHCND:SPE00120260,METERS,-7.4558
1004.0,1978-01-01,2024-01-01,40.6983,"COLMENAR VIEJO FAMET, SP",0.8505,GHCND:SPE00120269,METERS,-3.7642
609.0,1945-01-01,2024-01-01,40.4667,"MADRID BARAJAS, SP",0.8119,GHCND:SPE00120278,METERS,-3.5556
687.0,1946-01-01,2024-01-01,40.3778,"MADRID CUATROVIENTOS, SP",0.9993,GHCND:SPE00120287,METERS,-3.7892
617.0,1951-01-01,2024-01-01,40.3,"MADRID GETAFE, SP",0.9993,GHCND:SPE00120296,METERS,-3.7225
611.0,1961-01-01,2024-01-01,40.4831,"MADRID TORREJON, SP",0.9525,GHCND:SPE00120305,METERS,-3.4503
61.0,1985-01-01,2024-01-01,38.0028,"MURCIA, SP",0.9993,GHCND:SPE00120323,METERS,-1.1692
85.0,1941-01-01,2024-01-01,37.9578,"MURCIA ALCANTARILLA, SP",0.9636,GHCND:SPE00120332,METERS,-1.2294
442.0,1954-01-01,2024-01-01,42.8175,"PAMPLONA OBSERVATORIO, SP",0.8023,GHCND:SPE00120350,METERS,-1.6364
459.0,1975-01-01,2024-01-01,42.7767,"PAMPLONA, SP",0.9593,GHCND:SPE00120359,METERS,-1.65
143.0,1962-01-01,2024-01-01,42.3278,"OURENSE, SP",0.7773,GHCND:SPE00120368,METERS,-7.8603
148.0,1952-01-01,1968-01-01,42.3331,"OURENSE INSTITUTO, SP",0.8816,GHCND:SPE00120377,METERS,-7.8631
750.0,1951-01-01,1988-01-01,42.0081,"PALENCIA OBSERVATORIO, SP",0.7626,GHCND:SPE00120386,METERS,-4.5353
108.0,1986-01-01,2024-01-01,42.44,"PONTEVEDRA, SP",0.9993,GHCND:SPE00120395,METERS,-8.6164
19.0,1946-01-01,1985-01-01,42.4306,"PONTEVEDRA INSTITUTO, SP",0.5996,GHCND:SPE00120404,METERS,-8.6494
261.0,1957-01-01,2024-01-01,42.2392,"VIGO PEINADOR, SP",0.9405,GHCND:SPE00120413,METERS,-8.6239
775.0,1970-01-01,2024-01-01,40.9564,"SALAMANCA OBS., SP",0.6904,GHCND:SPE00120422,METERS,-5.6614
32.0,1974-01-01,2024-01-01,27.8189,"HIERRO AEROPUERTO, SP",0.9601,GHCND:SPE00120431,METERS,-17.8889
33.0,1971-01-01,2024-01-01,28.6331,"LA PALMA AEROPUERTO, SP",0.9438,GHCND:SPE00120449,METERS,-17.755
35.0,1931-01-01,2024-01-01,28.4631,"STA. CRUZ DE TENERIFE, SP",0.9993,GHCND:SPE00120458,METERS,-16.2553
632.0,1943-01-01,2024-01-01,28.4775,"TENERIFE LOS RODEOS, SP",0.9871,GHCND:SPE00120467,METERS,-16.3292
64.0,1981-01-01,2024-01-01,28.0475,"TENERIFE SUR, SP",0.9993,GHCND:SPE00120476,METERS,-16.5606
1005.0,1989-01-01,2024-01-01,40.9478,"SEGOVIA, SP",0.9993,GHCND:SPE00120485,METERS,-4.1269
990.0,1931-01-01,1986-01-01,40.9478,"SEGOVIA MARIANO QUINTANILLA, SP",0.6424,GHCND:SPE00120494,METERS,-4.1153
87.0,1956-01-01,2024-01-01,37.1581,"MORON DE LA FRONTERA, SP",0.9703,GHCND:SPE00120503,METERS,-5.6156
34.0,1951-01-01,2024-01-01,37.4167,"SEVILLA SAN PABLO, SP",0.9588,GHCND:SPE00120512,METERS,-5.8792
1082.0,1944-01-01,2024-01-01,41.775,"SORIA, SP",0.987,GHCND:SPE00120521,METERS,-2.4831
71.0,1946-01-01,2024-01-01,41.1494,"REUS AEROPUERTO, SP",0.8349,GHCND:SPE00120530,METERS,1.1789
890.0,1993-01-01,2024-01-01,40.9258,"CALAMOCHA, SP",0.8119,GHCND:SPE00120539,METERS,-1.2931
932.0,1942-01-01,1984-01-01,40.8653,"CALAMOCHA VOR, SP",0.6507,GHCND:SPE00120548,METERS,-1.3044
900.0,1987-01-01,2024-01-01,40.3494,"TERUEL, SP",0.9993,GHCND:SPE00120557,METERS,-1.1167
515.0,1983-01-01,2024-01-01,39.8844,"TOLEDO, SP",0.9755,GHCND:SPE00120566,METERS,-4.0492
540.0,1920-01-01,1981-01-01,39.8608,"TOLEDO LORENZANA, SP",0.9187,GHCND:SPE00120575,METERS,-4.0233
735.0,1973-01-01,2024-01-01,41.65,"VALLADOLID, SP",0.9801,GHCND:SPE00120593,METERS,-4.7667
846.0,1938-01-01,2024-01-01,41.7,"VALLADOLID VILLANUBLA, SP",0.9419,GHCND:SPE00120602,METERS,-4.85
42.0,1948-01-01,2024-01-01,43.2981,"BILBAO AEROPUERTO, SP",0.9733,GHCND:SPE00120611,METERS,-2.9056
656.0,1921-01-01,2024-01-01,41.5167,"ZAMORA, SP",0.8648,GHCND:SPE00120620,METERS,-5.7333
779.0,1920-01-01,2024-01-01,41.1144,"DAROCA, SP",0.9612,GHCND:SPE00120629,METERS,-1.4106
412.0,1914-01-01,2013-01-01,41.4181,"BARCELONA FABRA OBSERVATORY, SP",0.9993,GHCND:SPE00155259,METERS,2.1239
98.0,1967-01-01,1977-01-01,41.9789,"GIRONA NOU INSTITUT, SP",0.9084,GHCND:SPE00155273,METERS,2.8267
169.0,1948-01-01,1958-01-01,41.6164,"LLEIDA AJUNTAMENT, SP",0.9993,GHCND:SPE00155301,METERS,0.5831
162.0,1939-01-01,1945-01-01,41.6133,"LLEIDA ESCORXADOR, SP",0.9992,GHCND:SPE00155315,METERS,0.6181
95.0,1897-01-01,1966-01-01,41.98,"GIRONA ANTIC INSTITUT, SP",0.7995,GHCND:SPE00155329,METERS,2.8253
370.0,2008-01-01,2024-01-01,41.7428,"ALGUAIRE, SP",0.8817,GHCND:SPE00155955,METERS,0.5356
3.0,2008-01-01,2024-01-01,40.7078,"AMPOSTA, SP",0.8817,GHCND:SPE00155964,METERS,0.6319
150.0,2008-01-01,2024-01-01,41.9606,"ANGLES, SP",0.8817,GHCND:SPE00155973,METERS,2.6308
176.0,2008-01-01,2024-01-01,42.1164,"BANYOLES, SP",0.8817,GHCND:SPE00155982,METERS,2.7894
33.0,2008-01-01,2024-01-01,41.3839,"BARCELONA EL RAVAL, SP",0.8817,GHCND:SPE00155991,METERS,2.1675
79.0,2009-01-01,2024-01-01,41.3792,"BARCELONA ZONA UNIVERSITARIA, SP",0.9369,GHCND:SPE00156000,METERS,2.1053
32.0,2008-01-01,2024-01-01,41.0628,"BENISSANET, SP",0.8817,GHCND:SPE00156009,METERS,0.635
2535.0,2008-01-01,2024-01-01,42.4658,"BOI, SP",0.8229,GHCND:SPE00156018,METERS,0.8842
2266.0,2008-01-01,2024-01-01,42.6467,"BONAIGUA, SP",0.8817,GHCND:SPE00156027,METERS,0.9844
81.0,2008-01-01,2024-01-01,41.5178,"CABRILS, SP",0.8817,GHCND:SPE00156036,METERS,2.3767
2143.0,2008-01-01,2024-01-01,42.2925,"CADI NORD PRAT DAGUILO, SP",0.8817,GHCND:SPE00156045,METERS,1.715
176.0,2008-01-01,2024-01-01,41.6128,"CALDES DE MONTBUI, SP",0.8817,GHCND:SPE00156054,METERS,2.1681
147.0,2009-01-01,2024-01-01,41.4789,"CASTELLBISBAL, SP",0.9369,GHCND:SPE00156063,METERS,1.9756
14.0,2008-01-01,2024-01-01,41.8083,"CASTELL DARO, SP",0.8817,GHCND:SPE00156072,METERS,3.0325
507.0,2008-01-01,2024-01-01,41.8306,"CASTELLNOU DE BAGES, SP",0.8817,GHCND:SPE00156081,METERS,1.8467
264.0,2015-01-01,2024-01-01,41.6567,"CASTELLNOU DE SEANA, SP",0.7994,GHCND:SPE00156090,METERS,0.9517
2400.0,2009-01-01,2024-01-01,42.6833,"CERTASCAN, SP",0.8744,GHCND:SPE00156099,METERS,1.2717
554.0,2008-01-01,2024-01-01,41.6756,"CERVERA, SP",0.8817,GHCND:SPE00156108,METERS,1.2958
112.0,2008-01-01,2024-01-01,41.1714,"CONSTANTI, SP",0.8817,GHCND:SPE00156117,METERS,1.1678
17.0,2008-01-01,2024-01-01,41.2017,"CUNIT, SP",0.8817,GHCND:SPE00156126,METERS,1.6331
1097.0,2008-01-01,2024-01-01,42.3858,"DAS AERODROM, SP",0.8817,GHCND:SPE00156135,METERS,1.8664
179.0,2008-01-01,2024-01-01,40.8728,"EL PERELLO, SP",0.8817,GHCND:SPE00156144,METERS,0.7156
823.0,2008-01-01,2024-01-01,42.3981,"EL PONT DE SUERT, SP",0.8817,GHCND:SPE00156153,METERS,0.7433
2316.0,2008-01-01,2024-01-01,42.1825,"EL PORT DEL COMTE, SP",0.8817,GHCND:SPE00156162,METERS,1.5242
8.0,2012-01-01,2024-01-01,41.3403,"EL PRAT DE LLOBREGAT, SP",0.9223,GHCND:SPE00156171,METERS,2.0803
316.0,2008-01-01,2024-01-01,41.5308,"ELS HOSTALETS DE PIEROLA, SP",0.8817,GHCND:SPE00156180,METERS,1.8081
59.0,2008-01-01,2024-01-01,41.2156,"EL VENDRELL, SP",0.8817,GHCND:SPE00156189,METERS,1.5208
2519.0,2008-01-01,2024-01-01,42.5342,"ESPOT, SP",0.8817,GHCND:SPE00156198,METERS,1.0544
359.0,2008-01-01,2024-01-01,41.1533,"FALSET, SP",0.8817,GHCND:SPE00156207,METERS,0.8192
415.0,2008-01-01,2024-01-01,41.4328,"FONT RUBI, SP",0.8817,GHCND:SPE00156216,METERS,1.6239
72.0,2011-01-01,2024-01-01,41.9819,"GIRONA, SP",0.8565,GHCND:SPE00156225,METERS,2.8067
788.0,2008-01-01,2024-01-01,42.2342,"GUARDIOLA DE BERGUEDA, SP",0.8817,GHCND:SPE00156234,METERS,1.8744
515.0,2008-01-01,2024-01-01,40.9514,"HORTA DE SANT JOAN, SP",0.8817,GHCND:SPE00156243,METERS,0.3056
1.0,2008-01-01,2024-01-01,40.7069,"ILLA DE BUDA, SP",0.8817,GHCND:SPE00156252,METERS,0.8342
29.0,2008-01-01,2024-01-01,41.9775,"LA BISBAL DEMPORDA, SP",0.8817,GHCND:SPE00156261,METERS,3.0353
2247.0,2008-01-01,2024-01-01,42.6381,"LAC REDON, SP",0.7641,GHCND:SPE00156270,METERS,0.7789
785.0,2009-01-01,2024-01-01,41.6025,"LA PANADELLA, SP",0.8744,GHCND:SPE00156279,METERS,1.4006
513.0,2008-01-01,2016-01-01,42.2392,"LA POBLA DE SEGUR BOMBERS, SP",0.8881,GHCND:SPE00156288,METERS,0.9642
873.0,2008-01-01,2024-01-01,42.0803,"LA QUAR, SP",0.8817,GHCND:SPE00156297,METERS,1.9625
849.0,2008-01-01,2024-01-01,42.3706,"LA SEU DURGELL, SP",0.8817,GHCND:SPE00156306,METERS,1.4328
446.0,2008-01-01,2024-01-01,41.3925,"LESPLUGA DE FRANCOLI, SP",0.8817,GHCND:SPE00156315,METERS,1.0989
2.0,2008-01-01,2024-01-01,41.6467,"MALGRAT DE MAR, SP",0.8229,GHCND:SPE00156324,METERS,2.7567
2230.0,2008-01-01,2024-01-01,42.4658,"MALNIU, SP",0.8817,GHCND:SPE00156333,METERS,1.7781
240.0,2008-01-01,2024-01-01,40.7181,"MAS DE BARBERANS ABOCADOR, SP",0.8817,GHCND:SPE00156342,METERS,0.3994
1405.0,2008-01-01,2024-01-01,42.3769,"MOLLO FABERT, SP",0.8817,GHCND:SPE00156351,METERS,2.4142
1572.0,2008-01-01,2024-01-01,42.0514,"MONTSEC, SP",0.8817,GHCND:SPE00156360,METERS,0.7292
916.0,2008-01-01,2024-01-01,41.5953,"MONTSERRAT SANT DIMES, SP",0.8229,GHCND:SPE00156369,METERS,1.8375
816.0,2008-01-01,2024-01-01,41.8781,"MUNTANYOLA, SP",0.8817,GHCND:SPE00156378,METERS,2.1783
1971.0,2008-01-01,2024-01-01,42.3817,"NURIA, SP",0.8817,GHCND:SPE00156387,METERS,2.1553
333.0,2008-01-01,2024-01-01,41.5864,"ODENA, SP",0.8817,GHCND:SPE00156396,METERS,1.6531
421.0,2008-01-01,2016-01-01,42.1914,"OLOT PLA DE BAIX, SP",0.8881,GHCND:SPE00156405,METERS,2.4825
566.0,2008-01-01,2024-01-01,42.2158,"ORGANYA, SP",0.8817,GHCND:SPE00156414,METERS,1.3314
626.0,2008-01-01,2024-01-01,42.0739,"ORIS, SP",0.8817,GHCND:SPE00156423,METERS,2.2083
123.0,2009-01-01,2024-01-01,41.5669,"PARETS DEL VALLES, SP",0.8744,GHCND:SPE00156432,METERS,2.2258
1055.0,2008-01-01,2024-01-01,40.7967,"PN DELS PORTS, SP",0.8817,GHCND:SPE00156441,METERS,0.3181
196.0,2008-01-01,2024-01-01,42.4353,"PORTBOU, SP",0.8817,GHCND:SPE00156450,METERS,3.1658
1668.0,2011-01-01,2024-01-01,41.7733,"PUIG SESOLLES, SP",0.8565,GHCND:SPE00156459,METERS,2.4378
286.0,2008-01-01,2024-01-01,41.6831,"RAIMAT, SP",0.8817,GHCND:SPE00156468,METERS,0.4483
24.0,2008-01-01,2024-01-01,42.2706,"ROSES, SP",0.8817,GHCND:SPE00156477,METERS,3.1817
258.0,2009-01-01,2024-01-01,41.5656,"SABADELL PARC AGRARI, SP",0.8744,GHCND:SPE00156486,METERS,2.0692
2451.0,2008-01-01,2024-01-01,42.5192,"SALORIA, SP",0.9404,GHCND:SPE00156495,METERS,1.3656
158.0,2014-01-01,2024-01-01,41.4831,"SANT CUGAT DEL VALLES CAR, SP",0.8176,GHCND:SPE00156504,METERS,2.0792
852.0,2008-01-01,2024-01-01,42.2581,"SANT PAU DE SEGURIES, SP",0.8817,GHCND:SPE00156513,METERS,2.3642
4.0,2008-01-01,2024-01-01,42.1769,"SANT PERE PESCADOR, SP",0.8817,GHCND:SPE00156522,METERS,3.0967
690.0,2008-01-01,2024-01-01,42.1392,"SANT ROMA DABELLA, SP",0.8817,GHCND:SPE00156531,METERS,1.0389
349.0,2008-01-01,2024-01-01,41.6739,"SANT SALVADOR DE GUARDIOLA, SP",0.8817,GHCND:SPE00156540,METERS,1.7678
1167.0,2008-01-01,2024-01-01,42.1069,"SANTUARI DE QUERALT, SP",0.8817,GHCND:SPE00156549,METERS,1.8267
2228.0,2008-01-01,2024-01-01,42.77,"SASSEUVA, SP",0.8817,GHCND:SPE00156558,METERS,0.7317
691.0,2013-01-01,2024-01-01,41.9878,"SOLSONA, SP",0.8328,GHCND:SPE00156567,METERS,1.5117
5.0,2010-01-01,2024-01-01,41.1039,"TARRAGONA COMPLEX EDUCATIU, SP",0.9327,GHCND:SPE00156576,METERS,1.2008
427.0,2008-01-01,2024-01-01,41.6667,"TARREGA, SP",0.8817,GHCND:SPE00156585,METERS,1.1653
2.0,2008-01-01,2024-01-01,41.1467,"TORREDEMBARRA, SP",0.8817,GHCND:SPE00156594,METERS,1.4181
687.0,2009-01-01,2024-01-01,41.32,"ULLDEMOLINS, SP",0.8744,GHCND:SPE00156603,METERS,0.8856
252.0,2008-01-01,2024-01-01,41.3817,"VALLIRANA, SP",0.8817,GHCND:SPE00156612,METERS,1.9356
1002.0,2008-01-01,2021-01-01,42.6983,"VIELHA E MIJARAN, SP",0.8565,GHCND:SPE00156621,METERS,0.7939
953.0,2008-01-01,2024-01-01,41.84,"VILADRAU, SP",0.8817,GHCND:SPE00156630,METERS,2.4183
594.0,2008-01-01,2024-01-01,41.9956,"VILANOVA DE MEIA, SP",0.8817,GHCND:SPE00156639,METERS,1.0256
287.0,2008-01-01,2024-01-01,41.3069,"VILA RODONA, SP",0.8817,GHCND:SPE00156648,METERS,1.3625
53.0,2008-01-01,2024-01-01,41.185,"VINEBRE, SP",0.8817,GHCND:SPE00156657,METERS,0.5933
158.0,2016-01-01,2024-01-01,42.3419,"PANTA DE DARNIUS BOADELLA, SP",0.7771,GHCND:SPE00173105,METERS,2.8342
1213.0,2017-01-01,2024-01-01,42.4403,"PUIGCERDA, SP",0.8744,GHCND:SPE00173114,METERS,1.9344
316.0,2016-01-01,2024-01-01,41.0431,"TIVISSA, SP",0.7771,GHCND:SPE00173123,METERS,0.7403
283.0,2018-01-01,2024-01-01,41.5106,"LES BORGES BLANQUES, SP",0.8565,GHCND:SPE00175681,METERS,0.8564
68.6,1973-01-01,2023-01-01,39.489,"VALENCIA, SP",0.5487,GHCND:SPM00008284,METERS,-0.482
82.0,2020-01-01,2021-01-01,38.367,"ALICANTE, SP",0.9986,GHCND:SPM00008359,METERS,-0.5
43.3,1973-01-01,2023-01-01,38.282,"ALICANTE, SP",0.5095,GHCND:SPM00008360,METERS,-0.558
86.9,1958-01-01,2021-01-01,37.174917,"MORON DE LA FRONTERA, SP",0.3436,GHCND:SPW00013024,METERS,-5.615944
25.6,1958-01-01,2002-01-01,36.65,"ROTA NAS, SP",0.9327,GHCND:SPW00013025,METERS,-6.35
263.0,1957-01-01,2023-01-01,41.666242,"ZARAGOZA, SP",0.4773,GHCND:SPW00014010,METERS,-1.041553
617.5,1957-01-01,1967-01-01,40.496747,"TORREJON, SP",0.9995,GHCND:SPW00014011,METERS,-3.445872
